City_ID,City,Lat,Lng,Max Temp,Humidity,Cloudiness,Wind Speed,Country,Date
0,port alfred,-33.5906,26.891,59.18,77,56,9.78,ZA,1684096575
1,grytviken,-54.2811,-36.5092,34.29,97,100,13.89,GS,1684096576
2,hithadhoo,-0.6,73.0833,83.17,79,100,16.89,MV,1684096576
3,camana,-16.6228,-72.7111,72.43,73,4,5.95,PE,1684096078
4,dudinka,69.4058,86.1778,11.64,96,100,9.53,RU,1684096336
5,waitangi,-43.9535,-176.5597,55.06,65,97,9.24,NZ,1684096079
6,ushuaia,-54.8,-68.3,49.66,50,20,12.66,AR,1684096293
7,atafu village,-8.5421,-172.5159,83.25,79,100,13.27,TK,1684096085
8,la'ie,21.6477,-157.9253,82.36,70,60,8.01,US,1684096579
9,jingmen,31.0336,112.2047,67.37,88,100,4.43,CN,1684096579
10,jamestown,42.097,-79.2353,60.39,44,0,12.66,US,1684096291
11,selfoss,63.9331,-20.9971,40.05,78,56,11.07,IS,1684096580
12,vilyuchinsk,52.9306,158.4028,55.67,66,82,11.74,RU,1684096581
13,sultanah,24.4926,39.5857,97.25,7,0,6.91,SA,1684096581
14,hobyo,5.3505,48.5268,80.6,82,96,24.87,SO,1684096582
15,bodaybo,57.8506,114.1933,28.42,83,100,2.68,RU,1684096582
16,port-aux-francais,-49.35,70.2167,41.7,83,92,25.55,TF,1684096583
17,longyearbyen,78.2186,15.6401,22.84,74,75,3.44,SJ,1684096583
18,nishinoomote,30.7333,131.0,68.23,72,0,18.14,JP,1684096584
19,st. john's,47.5649,-52.7093,51.19,70,40,27.63,CA,1684096286
20,kapuskasing,49.4169,-82.4331,66.29,22,40,6.91,CA,1684096515
21,cidreira,-30.1811,-50.2056,65.48,73,52,7.18,BR,1684096585
22,lihue,21.9789,-159.3672,79.84,74,75,19.57,US,1684096586
23,vernon,50.2581,-119.2691,90.75,26,0,5.75,CA,1684096340
24,mandal,25.45,74.5667,88.14,29,13,8.23,IN,1684096587
25,talnakh,69.4865,88.3972,6.3,97,100,5.66,RU,1684096587
26,nikolayevsk-on-amure,53.1406,140.73,52.99,84,14,3.13,RU,1684096588
27,blackmans bay,-43.0167,147.3167,51.93,67,12,8.55,AU,1684096589
28,sulphur springs,33.1385,-95.6011,73.54,88,100,4.61,US,1684096399
29,ribeira grande,38.5167,-28.7,66.6,88,40,6.91,PT,1684096590
30,las lomitas,-24.7096,-60.593,75.36,40,0,5.86,AR,1684096591
31,cotoca,-17.8167,-63.05,85.86,51,20,9.22,BO,1684096592
32,stanley,54.868,-1.6985,53.19,85,75,6.91,GB,1684096308
33,mugia,43.1041,-9.2179,60.17,84,83,12.77,ES,1684096593
34,vila franca do campo,37.7167,-25.4333,66.61,84,90,2.28,PT,1684096594
35,tongliao,43.6125,122.2653,60.64,60,84,7.85,CN,1684096594
36,yellowknife,62.456,-114.3525,70.32,32,75,20.71,CA,1684096595
37,tahe,52.3333,124.7333,44.78,74,87,8.14,CN,1684096595
38,pekanbaru,0.5333,101.45,80.92,94,100,2.3,ID,1684096596
39,saipan,15.1355,145.701,81.64,100,40,5.75,MP,1684096596
40,bethel,41.3712,-73.414,70.16,38,0,12.66,US,1684096364
41,college,64.8569,-147.8028,65.08,28,0,13.8,US,1684096597
42,giyani,-23.3025,30.7187,66.88,72,6,2.17,ZA,1684096598
43,adamstown,-25.066,-130.1015,74.89,78,100,26.96,PN,1684096598
44,janauba,-15.8025,-43.3089,76.03,61,83,6.02,BR,1684096599
45,tibanbang,6.6315,126.1055,81.14,78,71,2.15,PH,1684096599
46,balachor,31.0667,76.3167,79.11,28,0,6.2,IN,1684096600
47,katsuura,35.1333,140.3,60.82,87,100,16.53,JP,1684096600
48,polyarnyy,69.1989,33.4478,43.34,86,99,6.55,RU,1684096535
49,albany,42.6001,-73.9662,67.78,33,72,3.0,US,1684096431
50,hamilton,39.1834,-84.5333,80.26,47,0,5.99,US,1684096419
51,thompson,55.7435,-97.8558,78.96,31,75,16.11,CA,1684096602
52,xinyuan,37.3,99.0,36.25,56,12,2.28,CN,1684096603
53,tazovsky,67.4667,78.7,25.32,96,100,16.44,RU,1684096335
54,port mathurin,-19.6833,63.4167,77.74,75,13,14.76,MU,1684096603
55,atar,20.5169,-13.0499,92.64,19,85,10.74,MR,1684096604
56,puerto natales,-51.7236,-72.4875,45.05,81,75,2.3,CL,1684096604
57,iqaluit,63.7506,-68.5145,28.13,92,100,9.22,CA,1684096605
58,edinburgh of the seven seas,-37.0676,-12.3116,64.15,90,100,28.79,SH,1684096605
59,whitehorse,60.7161,-135.0538,59.02,32,75,5.75,CA,1684096547
60,dmitrovsk-orlovskiy,52.505,35.1464,49.33,86,17,6.26,RU,1684096606
61,callao,-12.0667,-77.15,79.09,61,0,14.97,PE,1684096529
62,puerto baquerizo moreno,-0.9,-89.6,83.39,79,40,13.8,EC,1684096607
63,mount pearl,47.5166,-52.7813,50.34,70,40,27.63,CA,1684096607
64,zhangye,38.9342,100.4517,64.13,22,78,4.03,CN,1684096608
65,olinda,-8.0089,-34.8553,83.93,65,75,8.05,BR,1684096608
66,dryden,49.7833,-92.7503,68.29,21,0,9.22,CA,1684096376
67,qaqortoq,60.7167,-46.0333,35.38,85,59,2.66,GL,1684096609
68,invercargill,-46.4,168.35,47.01,95,97,3.0,NZ,1684096609
69,west island,-12.1568,96.8225,82.38,83,100,12.66,CC,1684096610
70,iskateley,67.6803,53.1512,32.25,93,100,12.08,RU,1684096611
71,hasaki,35.7333,140.8333,61.21,77,100,16.67,JP,1684096611
72,punta arenas,-53.15,-70.9167,44.71,81,100,17.27,CL,1684096516
73,ust-nera,64.5667,143.2,28.27,76,13,3.56,RU,1684096337
74,sur,22.5667,59.5289,91.9,46,0,9.93,OM,1684096612
75,yelizovo,53.1873,158.3805,55.54,41,0,13.42,RU,1684096613
76,haenam,34.5711,126.5989,57.49,74,12,2.42,KR,1684096613
77,sarkand,45.41,79.9186,59.92,69,97,5.66,KZ,1684096613
78,montepuez,-13.1256,38.9997,66.31,86,23,4.27,MZ,1684096614
79,tibro,58.4245,14.1616,55.13,72,70,2.06,SE,1684096614
80,saint-joseph,-21.3667,55.6167,73.78,81,12,3.29,RE,1684096615
81,fada,9.5667,8.3,76.68,76,99,3.96,NG,1684096615
82,port lincoln,-34.7333,135.8667,58.66,67,4,4.41,AU,1684096615
83,itacoatiara,-3.1431,-58.4442,81.37,88,94,2.57,BR,1684096616
84,badger,64.8,-147.5333,64.99,26,0,13.8,US,1684096616
85,ciro marina,39.3732,17.126,63.43,92,100,9.75,IT,1684096617
86,al kharj,24.155,47.3346,88.38,15,36,9.15,SA,1684096617
87,georgetown,5.4112,100.3354,82.35,89,20,2.3,MY,1684096618
88,tabou,4.423,-7.3528,79.84,85,100,7.63,CI,1684096618
89,xilin hot,43.9667,116.0333,46.71,62,100,10.49,CN,1684096619
90,tiksi,71.6872,128.8694,9.37,83,12,3.53,RU,1684096619
91,margaret river,-33.95,115.0667,59.09,74,100,1.63,AU,1684096620
92,coquimbo,-29.9533,-71.3436,62.33,77,100,5.75,CL,1684096601
93,ashland,40.8167,-82.2665,71.06,58,95,15.01,US,1684096621
94,touros,-5.1989,-35.4608,80.1,81,23,10.13,BR,1684096622
95,rongelap,11.1635,166.8941,81.86,77,11,13.11,MH,1684096622
96,uturoa,-16.7333,-151.4333,81.1,75,23,6.35,PF,1684096623
97,roma,43.2128,-75.4557,64.38,32,0,18.41,US,1684096564
98,saldanha,-33.0117,17.9442,57.25,68,0,12.59,ZA,1684096623
99,afaahiti,-17.75,-149.2833,82.27,76,29,4.14,PF,1684096624
100,hawaiian paradise park,19.5933,-154.9731,75.9,90,100,3.44,US,1684096624
101,arraial do cabo,-22.9661,-42.0278,73.26,73,0,9.22,BR,1684096624
102,nako,31.8814,78.627,35.55,76,61,4.07,IN,1684096625
103,beloyarskiy,63.7119,66.6722,38.89,76,100,5.95,RU,1684096625
104,concepcion,-36.827,-73.0498,57.0,82,75,14.97,CL,1684096626
105,lautoka,-17.6167,177.4667,78.66,73,75,10.36,FJ,1684096626
106,baiti,13.745,-14.7482,95.16,18,99,4.63,SN,1684096627
107,timbuktu,16.7735,-3.0074,87.76,34,82,11.56,ML,1684096627
108,tolanaro,-25.0319,46.9987,71.67,94,40,18.41,MG,1684096628
109,udachny,66.4167,112.4,26.04,98,99,4.56,RU,1684096629
110,preobrazheniye,42.9019,133.9064,48.85,91,100,1.45,RU,1684096629
111,alvand,36.3187,49.1678,45.07,87,55,3.89,IR,1684096629
112,mahibadhoo,3.7833,72.9667,83.23,77,100,19.6,MV,1684096630
113,harper,4.375,-7.7169,79.99,85,100,8.3,LR,1684096631
114,larroque,-33.036,-59.0013,67.39,49,94,6.44,AR,1684096631
115,nar'yan-mar,67.6713,53.087,32.38,93,100,12.26,RU,1684096632
116,gizo,-8.103,156.8419,82.99,79,56,3.58,SB,1684096632
117,fatezh,52.0891,35.8632,60.78,84,17,6.98,RU,1684096528
118,papatowai,-46.5619,169.4708,43.63,89,89,6.15,NZ,1684096633
119,puerto ayora,-0.7393,-90.3518,87.76,89,98,8.01,EC,1684096634
120,tralee,52.2704,-9.7026,46.87,73,7,12.17,IE,1684096634
121,puerto deseado,-47.7503,-65.8938,51.26,67,72,14.67,AR,1684096634
122,fort mcmurray,56.7268,-111.381,83.79,28,0,12.66,CA,1684096635
123,alibag,18.6411,72.8792,86.07,79,1,5.44,IN,1684096635
124,aykhal,66.0,111.5,28.58,97,100,4.92,RU,1684096636
125,mildura,-34.2,142.15,53.69,61,18,6.2,AU,1684096636
126,timmins,48.4669,-81.3331,66.02,22,20,9.22,CA,1684096637
127,avarua,-21.2078,-159.775,78.85,73,57,6.91,CK,1684096467
128,wailua homesteads,22.0669,-159.378,79.23,75,75,19.57,US,1684096638
129,as samawah,31.332,45.2944,82.53,24,14,8.39,IQ,1684096638
130,gamba,-2.65,10.0,79.05,92,95,5.7,GA,1684096639
131,kolonia,50.9333,6.95,61.92,68,0,4.61,DE,1684096639
132,axim,4.8699,-2.2405,81.18,85,98,8.46,GH,1684096641
133,castillos,-34.1667,-53.8333,64.45,70,58,5.44,UY,1684096641
134,morovis,18.3258,-66.4066,85.21,78,100,8.72,PR,1684096641
135,quellon,-43.1167,-73.6167,57.45,100,0,3.44,CL,1684096642
136,anadyr,64.75,177.4833,21.7,73,0,17.9,RU,1684096642
137,bubaque,11.2833,-15.8333,79.57,77,86,20.22,GW,1684096643
138,port macquarie,-31.4333,152.9167,55.89,92,25,3.85,AU,1684096644
139,pisco,-13.7,-76.2167,77.05,61,0,19.57,PE,1684096644
140,petropavlovsk-kamchatsky,53.0452,158.6483,54.19,41,0,13.42,RU,1684096645
141,berbera,10.4396,45.0143,86.45,73,4,6.78,SO,1684096645
142,vwawa,-9.1167,32.9333,61.11,84,75,3.71,TZ,1684096646
143,constitucion,-35.3333,-72.4167,58.98,86,72,14.23,CL,1684096646
144,acarau,-2.8856,-40.12,80.33,82,40,11.56,BR,1684096473
145,kudat,6.8837,116.8477,76.93,100,20,2.3,MY,1684096647
146,kodiak,57.79,-152.4072,45.91,87,100,12.66,US,1684096648
147,kudahuvadhoo,2.6708,72.8944,82.74,80,100,19.86,MV,1684096649
148,severobaykal'sk,55.65,109.3167,22.26,73,1,4.5,RU,1684096649
149,kayangel,8.0823,134.7173,83.97,72,70,8.03,PW,1684096650
150,isafjordur,66.0755,-23.124,30.2,76,97,7.29,IS,1684096651
151,galle,6.0367,80.217,80.94,90,100,14.56,LK,1684096651
152,nouadhibou,20.931,-17.0347,64.17,89,20,13.35,MR,1684096652
153,horta,38.5333,-28.6333,65.84,89,40,6.91,PT,1684096652
154,sovetskaya gavan',48.9723,140.2878,48.16,78,26,6.91,RU,1684096653
155,san andres,12.5847,-81.7006,87.82,66,20,9.22,CO,1684096653
156,klyuchi,52.2667,79.1667,42.01,53,55,10.2,RU,1684096654
157,nemuro,43.3236,145.575,45.5,91,100,16.13,JP,1684096655
158,bredasdorp,-34.5322,20.0403,55.63,68,53,2.98,ZA,1684096655
159,san patricio,28.017,-97.5169,89.46,50,100,3.04,US,1684096656
160,port elizabeth,-33.918,25.5701,60.31,79,57,1.99,ZA,1684096656
161,sao joao da barra,-21.6403,-41.0511,73.49,69,84,7.07,BR,1684096656
162,sisimiut,66.9395,-53.6735,29.07,68,100,6.04,GL,1684096657
163,dire dawa,9.5931,41.8661,74.75,64,60,8.25,ET,1684096658
164,flying fish cove,-10.4217,105.6791,78.48,78,40,13.8,CX,1684096658
165,sitka,57.0531,-135.33,61.39,62,69,2.46,US,1684096658
166,alice springs,-23.7,133.8833,54.95,94,100,13.02,AU,1684096659
167,jayapura,-2.5333,140.7,76.39,90,65,3.58,ID,1684096659
168,tual,-5.6667,132.75,82.0,77,82,5.03,ID,1684096660
169,kingston,17.997,-76.7936,88.25,68,20,23.02,JM,1684096592
170,ar ruways,24.1103,52.7306,82.72,56,0,16.55,AE,1684096661
171,huazhou,21.6333,110.5833,70.03,95,97,2.08,CN,1684096661
172,enewetak,11.3474,162.3373,81.9,74,92,15.37,MH,1684096662
173,san fernando,15.0286,120.6898,82.13,91,56,2.15,PH,1684096662
174,melilla,35.2937,-2.9383,71.98,30,0,3.44,ES,1684096663
175,guerrero negro,27.9769,-114.0611,70.21,54,0,13.6,MX,1684096429
176,khash,28.2211,61.2158,78.31,20,24,14.07,IR,1684096663
177,inhambane,-23.865,35.3833,71.44,80,51,4.59,MZ,1684096664
178,gao,16.6362,1.637,95.38,22,77,14.09,ML,1684096665
179,alaghsas,17.0187,8.0168,96.69,23,0,2.3,NE,1684096665
180,minas de marcona,-15.2119,-75.1103,67.24,68,32,10.56,PE,1684096666
181,egilsstadir,65.2653,-14.3948,31.91,69,100,12.66,IS,1684096671
182,aznalcollar,37.5491,-6.3166,72.99,34,3,4.32,ES,1684096672
183,quibdo,5.6947,-76.6611,84.54,84,75,3.44,CO,1684096576
184,chui,-33.6971,-53.4616,63.7,73,46,5.66,UY,1684096672
185,chonchi,-42.6128,-73.8092,61.81,90,88,3.04,CL,1684096673
186,mandiana,10.6333,-8.6833,83.84,53,63,2.98,GN,1684096673
187,ha'il,27.5219,41.6907,77.02,22,0,4.61,SA,1684096548
188,ilulissat,69.2167,-51.1,28.42,74,75,8.05,GL,1684096674
189,kalmunai,7.4167,81.8167,81.82,79,100,1.97,LK,1684096675
190,levuka,50.1834,-105.4011,71.42,35,0,6.02,CA,1684096675
191,nanga eboko,4.6833,12.3667,71.71,98,99,4.18,CM,1684096676
192,cabo san lucas,22.8909,-109.9124,86.61,47,0,3.44,MX,1684096550
193,cananeia,-25.0147,-47.9267,65.93,79,4,2.3,BR,1684096676
194,paracuru,-3.41,-39.0306,83.1,82,41,9.28,BR,1684096677
195,saint-philippe,-21.3585,55.7679,74.79,80,22,5.32,RE,1684096677
196,vimmerby,57.6659,15.8552,48.61,67,0,4.59,SE,1684096678
197,pariaman,-0.619,100.12,78.55,89,38,3.51,ID,1684096678
198,saudarkrokur,65.7461,-19.6394,26.83,91,100,6.08,IS,1684096679
199,kavaratti,10.5669,72.642,84.36,76,91,7.52,IN,1684096680
200,laguna,38.421,-121.4238,92.17,34,0,10.36,US,1684096680
201,petrolina,-9.3986,-40.5008,77.05,94,75,2.3,BR,1684096681
202,fale old settlement,-9.3852,-171.2468,82.8,80,22,12.93,TK,1684096681
203,east london,-33.0153,27.9116,62.78,70,100,10.11,ZA,1684096681
204,pudozh,61.8099,36.5345,47.28,69,1,1.54,RU,1684096682
205,puerto quijarro,-17.7833,-57.7667,80.1,53,2,4.23,BO,1684096682
206,lame,10.4415,9.2396,87.55,34,88,2.53,NG,1684096683
207,bilibino,68.0546,166.4372,14.74,85,31,1.45,RU,1684096684
208,naval,11.5606,124.3975,80.89,82,64,1.92,PH,1684096685
209,ludington,43.9553,-86.4526,64.58,32,0,9.22,US,1684096685
210,aldan,58.6031,125.3894,30.83,97,99,4.88,RU,1684096686
211,rabaul,-4.1967,152.1721,80.31,84,60,2.3,PG,1684096686
212,jesus de otoro,14.4833,-87.9833,80.26,77,98,4.68,HN,1684096686
213,jining,35.405,116.5814,65.34,71,2,6.26,CN,1684096686
214,kill devil hills,36.0307,-75.676,66.97,70,0,14.97,US,1684096687
215,westport,41.1415,-73.3579,73.09,31,0,13.8,US,1684096677
216,baxter,46.3433,-94.2867,71.89,21,0,9.31,US,1684096688
217,ladario,-19.0047,-57.6017,86.29,35,0,4.61,BR,1684096688
218,ola,59.5833,151.2833,37.15,64,19,7.49,RU,1684096689
219,san julian,21.0167,-102.1667,81.88,14,98,8.21,MX,1684096689
220,tangalle,6.024,80.7911,80.47,88,100,14.65,LK,1684096690
221,matthew town,20.95,-73.6667,82.72,72,80,9.78,BS,1684096690
222,turpan,42.9333,89.1667,83.61,23,97,3.69,CN,1684096691
223,estevan,49.1334,-102.9842,71.22,30,0,3.44,CA,1684096691
224,boa vista,2.8197,-60.6733,85.98,66,75,6.91,BR,1684096692
225,fort bragg,35.139,-79.006,79.83,69,100,4.61,US,1684096692
226,gangapur,26.4833,76.7167,87.75,26,22,8.84,IN,1684096693
227,zaozersk,69.4005,32.4476,46.18,78,100,3.6,RU,1684096693
228,muroto-misakicho,33.2833,134.15,64.78,85,41,8.21,JP,1684096694
229,beas de segura,38.2524,-2.8888,53.6,54,10,4.34,ES,1684096695
230,mushie,-3.0167,16.9,75.99,89,60,0.65,CD,1684096696
231,lensk,60.7253,114.9278,31.12,80,100,2.75,RU,1684096696
232,constantia,44.1833,28.65,50.68,69,100,8.81,RO,1684096570
233,luderitz,-26.6481,15.1594,62.91,41,0,9.95,NA,1684096697
234,juan griego,11.0817,-63.9655,87.93,62,67,20.71,VE,1684096698
235,charlestown,-32.95,151.6667,55.72,97,7,4.29,AU,1684096698
236,ulsteinvik,62.3432,5.8487,54.5,87,100,7.0,NO,1684096698
237,buka,40.8108,69.1986,70.12,38,31,5.86,UZ,1684096699
238,mata-utu,-13.2816,-176.1745,82.74,76,14,7.47,WF,1684096700
239,benghazi,32.1167,20.0667,80.38,34,69,13.85,LY,1684096700
240,ataq,14.5377,46.8319,77.65,68,4,9.19,YE,1684096701
241,saint-francois,46.4154,3.9054,53.04,89,0,4.61,FR,1684096701
242,taoudenni,22.6783,-3.9836,96.37,10,38,10.83,ML,1684096702
243,lebu,-37.6167,-73.65,57.36,74,95,11.01,CL,1684096702
244,utrik,11.2278,169.8474,81.19,79,78,15.03,MH,1684096703
245,codrington,-38.2667,141.9667,48.33,69,1,10.27,AU,1684096703
246,walvis bay,-22.9575,14.5053,57.09,94,0,2.3,NA,1684096704
247,basoko,1.2391,23.616,77.88,74,100,2.86,CD,1684096704
248,vilyuysk,63.7553,121.6247,33.82,82,100,3.4,RU,1684096705
249,kachug,53.9606,105.8817,24.89,46,22,1.83,RU,1684096706
250,crane,31.3974,-102.3501,78.87,39,60,4.56,US,1684096706
251,turtas,58.9417,69.1325,34.7,73,14,2.01,RU,1684096707
252,leo,11.1,-2.1,84.31,49,87,4.36,BF,1684096707
253,kenai,60.5544,-151.2583,53.69,50,75,6.91,US,1684096708
254,howard springs,-12.497,131.047,73.31,71,50,2.93,AU,1684096708
255,happy valley-goose bay,53.3168,-60.3315,34.11,86,100,10.36,CA,1684096709
256,aldinga beach,-35.2793,138.4604,59.41,58,6,3.98,AU,1684096709
257,kolwezi,-10.7148,25.4667,67.41,58,94,0.92,CD,1684096710
258,kochani,41.9164,22.4128,56.44,93,100,5.06,MK,1684096710
259,gebeit,21.0667,36.3167,82.18,23,13,5.23,SD,1684096711
260,keflavik,64.0049,-22.5624,42.71,75,75,3.44,IS,1684096711
261,alamos,27.0167,-108.9333,91.89,13,0,9.78,MX,1684096712
262,rantauprapat,2.1,99.8333,74.89,94,89,2.04,ID,1684096712
263,luau,-10.7073,22.2247,65.64,56,8,3.47,AO,1684096713
264,zouerate,22.7187,-12.4521,88.5,13,51,10.11,MR,1684096713
265,nagqu,31.5,92.0,22.87,42,99,4.72,CN,1684096714
266,pathalgaon,22.5667,83.4667,81.25,19,0,3.36,IN,1684096714
267,nova sintra,14.8667,-24.7167,68.4,80,38,17.69,CV,1684096715
268,wloszczowa,50.8526,19.9659,61.27,87,100,11.16,PL,1684096715
269,trairi,-3.2778,-39.2689,79.57,81,17,8.3,BR,1684096716
270,casper,42.8666,-106.3131,54.19,87,100,12.66,US,1684096602
271,jasper,37.2001,-94.3502,87.12,72,100,5.01,US,1684096716
272,arkhangel'sk,64.5401,40.5433,48.72,78,15,4.47,RU,1684096513
273,aasiaat,68.7098,-52.8699,26.44,74,92,6.02,GL,1684096717
274,toliara,-23.35,43.6667,74.88,78,91,5.06,MG,1684096718
275,la punta,-33.1837,-66.3127,72.84,42,0,4.52,AR,1684096718
276,hoa binh,20.8133,105.3383,70.74,93,100,2.42,VN,1684096719
277,mossel bay,-34.1831,22.146,53.53,65,85,7.87,ZA,1684096719
278,tiruchchendur,8.4833,78.1167,84.18,77,100,16.89,IN,1684096720
279,pizarro,4.9533,-77.366,83.08,83,100,8.16,CO,1684096720
280,marksville,31.128,-92.0662,87.98,45,18,5.84,US,1684096721
281,ushtobe,45.2514,77.9838,65.7,43,99,5.1,KZ,1684096721
282,xai-xai,-25.0519,33.6442,68.86,91,40,5.57,MZ,1684096722
283,al muwayh,22.4333,41.7583,87.17,18,93,10.87,SA,1684096722
284,kurmuk,10.55,34.2833,85.39,31,86,2.95,SD,1684096723
285,kenora,49.8167,-94.4337,70.77,26,40,5.75,CA,1684096615
286,caldas novas,-17.7417,-48.625,68.52,56,5,2.42,BR,1684096724
287,tateyama,34.9833,139.8667,60.73,94,75,1.14,JP,1684096724
288,canoinhas,-26.1772,-50.39,56.25,71,57,0.6,BR,1684096724
289,praia da vitoria,38.7333,-27.0667,68.25,68,20,6.8,PT,1684096725
290,hermanus,-34.4187,19.2345,52.81,73,1,10.29,ZA,1684096725
291,chinchilla,-26.75,150.6333,60.84,87,100,8.99,AU,1684096726
292,susuman,62.7833,148.1667,22.35,72,17,1.74,RU,1684096726
293,myeik,12.4333,98.6,80.56,83,41,5.23,MM,1684096727
294,taybad,34.74,60.7756,75.04,17,63,7.47,IR,1684096727
295,solleftea,63.1667,17.2667,49.86,67,8,4.14,SE,1684096727
296,prince rupert,54.3161,-130.3201,64.49,73,0,14.97,CA,1684096728
297,benton,36.3334,-94.3335,84.33,75,40,4.61,US,1684096729
298,saint joseph,39.7686,-94.8466,83.43,73,100,4.61,US,1684096729
299,kandyagash,49.4744,57.4233,52.92,48,100,9.28,KZ,1684096729
300,hastings,50.8552,0.5729,55.98,42,99,9.13,GB,1684096730
301,hauterive,46.0901,3.4459,54.36,97,39,2.68,FR,1684096730
302,dhar,22.6,75.3,83.44,48,0,15.19,IN,1684096731
303,ancud,-41.8697,-73.8203,55.62,87,100,6.4,CL,1684096731
304,khorinsk,52.1657,109.7726,22.86,56,4,3.98,RU,1684096732
305,nykobing sjaelland,55.9249,11.6711,57.06,82,10,7.4,DK,1684096732
306,dunedin,-45.8742,170.5036,48.79,74,0,5.53,NZ,1684096733
307,malabar,-33.9667,151.25,56.7,91,100,4.94,AU,1684096733
308,chibougamau,49.9168,-74.3659,56.82,30,0,11.5,CA,1684096733
309,matipo,-20.2839,-42.3411,65.82,84,1,3.11,BR,1684096734
310,caconda,-13.7333,15.0667,59.92,59,8,3.09,AO,1684096735
311,broken hill,-31.95,141.4333,56.52,50,99,6.76,AU,1684096718
312,broome,42.2506,-75.833,61.18,45,0,19.57,US,1684096735
313,sao felix do xingu,-6.6447,-51.995,80.4,81,47,2.51,BR,1684096736
314,nan,18.8333,100.6667,71.33,95,100,1.05,TH,1684096736
315,arar,30.9753,41.0381,77.02,18,0,4.61,SA,1684096737
316,aioun,16.6614,-9.6149,94.41,22,96,7.2,MR,1684096737
317,vera,-29.4593,-60.2126,73.85,35,0,6.82,AR,1684096738
318,kruisfontein,-34.0033,24.7314,54.88,75,90,4.45,ZA,1684096738
319,tura,25.5198,90.2201,69.57,59,24,4.07,IN,1684096739
320,hohhot,40.8106,111.6522,65.91,46,0,4.47,CN,1684096739
321,santa terezinha,-29.9002,-50.0904,66.29,73,74,6.33,BR,1684096740
322,zhanaozen,43.3,52.8,52.84,81,100,18.05,KZ,1684096740
323,aleksandrovskoye,44.7142,43.0008,48.2,89,100,8.5,RU,1684096741
324,antsiranana,-12.2787,49.2917,73.92,88,16,9.91,MG,1684096742
325,tamanrasset,22.785,5.5228,80.51,28,40,13.8,DZ,1684096743
326,san lorenzo cacaotepec,17.1333,-96.8,83.44,26,40,4.61,MX,1684096743
327,hailin,44.5833,129.4167,48.36,92,85,3.58,CN,1684096743
328,niafunke,15.9322,-3.9906,89.76,35,47,11.97,ML,1684096744
329,ta`u,-14.2336,-169.5144,81.32,76,13,6.33,AS,1684096744
330,alesund,62.4723,6.1549,54.52,91,40,4.61,NO,1684096745
331,maragogi,-9.0122,-35.2225,78.75,77,65,7.61,BR,1684096746
332,palikir - national government center,6.9248,158.1611,75.94,100,100,3.44,FM,1684096747
333,holstebro,56.3601,8.6161,55.81,80,100,4.09,DK,1684096747
334,i-n-salah,27.1935,2.4607,82.63,18,3,26.19,DZ,1684096748
335,oranjemund,-28.55,16.4333,60.1,60,0,12.48,NA,1684096748
336,tsengel,49.4783,100.8894,44.01,45,100,3.44,MN,1684096749
337,caleta de carquin,-11.0925,-77.6267,75.09,70,3,11.61,PE,1684096749
338,bhamo,24.2667,97.2333,67.35,91,100,4.85,MM,1684096750
339,fort st. john,56.2499,-120.8529,80.49,18,75,5.75,CA,1684096750
340,tromso,69.6496,18.957,50.38,76,0,6.91,NO,1684096751
341,yorkton,51.2167,-102.4677,76.84,19,0,4.61,CA,1684096488
342,al bawiti,28.3492,28.8659,68.99,42,8,11.01,EG,1684096752
343,swan hill,-35.3378,143.5544,50.85,63,0,5.12,AU,1684096753
344,tolbazy,54.0241,55.8825,50.14,67,69,4.09,RU,1684096754
345,undurkhaan,47.3194,110.6556,37.49,45,48,6.6,MN,1684096755
346,sabang,5.8933,95.3214,84.11,72,55,14.41,ID,1684096755
347,long beach,33.767,-118.1892,86.97,73,0,10.0,US,1684096503
348,camacupa,-12.0167,17.4833,62.87,57,57,2.95,AO,1684096756
349,choyr,46.3611,108.3611,42.37,58,80,10.45,MN,1684096757
350,salinas,36.6777,-121.6555,73.99,70,0,14.97,US,1684096486
351,ardabil,38.2498,48.2933,44.15,100,100,6.91,IR,1684096758
352,kone,-21.0595,164.8658,73.98,76,79,5.82,NC,1684096758
353,sinabang,2.4803,96.3801,79.56,83,24,1.34,ID,1684096759
354,santa ana,33.7456,-117.8678,90.86,59,20,8.05,US,1684096616
355,recife,-8.0539,-34.8811,84.24,65,75,8.05,BR,1684096475
356,banfora,10.6333,-4.7667,76.91,86,100,1.63,BF,1684096760
357,colonia,50.9333,6.95,61.92,68,0,4.61,DE,1684096471
358,vershino-darasunskiy,52.35,115.5167,26.78,41,49,15.88,RU,1684096761
359,anar darah,32.7587,61.654,80.62,11,56,3.65,AF,1684096762
360,sidi aissa,35.8855,3.7724,52.36,72,96,13.96,DZ,1684096763
361,dalby,-27.1833,151.2667,59.59,87,98,11.54,AU,1684096629
362,mariental,-24.6333,17.9667,60.73,31,3,11.77,NA,1684096764
363,disa,24.25,72.1667,82.74,65,0,9.71,IN,1684096764
364,vorgashor,67.5833,63.95,32.88,93,100,17.43,RU,1684096765
365,east ballina,-28.8667,153.5833,61.02,99,100,3.31,AU,1684096765
366,ponta delgada,37.7333,-25.6667,66.92,72,20,5.75,PT,1684096766
367,rikaze,29.25,88.8833,45.19,38,78,3.94,CN,1684096766
368,novyy turtkul',41.55,61.0167,76.91,25,92,18.5,UZ,1684096767
369,lata,40.1629,-8.3327,60.08,91,90,2.89,PT,1684096767
370,ghanzi,-21.5667,21.7833,71.35,34,73,5.84,BW,1684096768
371,lampasas,31.2168,-98.2336,79.61,72,40,4.61,US,1684096768
372,puerto aysen,-45.4,-72.7,57.72,96,100,1.7,CL,1684096769
373,pineville,31.3224,-92.4343,89.33,57,20,12.66,US,1684096769
374,page,36.9147,-111.4558,78.58,32,0,13.8,US,1684096770
375,gadzhiyevo,69.2551,33.3362,41.43,88,100,5.66,RU,1684096770
376,imbituba,-28.24,-48.6703,63.95,67,21,0.83,BR,1684096771
377,melekeok village,7.4957,134.6367,77.56,94,75,0.0,PW,1684096771
378,mhamid,29.82,-5.72,77.54,12,0,10.04,MA,1684096772
379,sona,45.4388,10.8255,55.56,95,75,2.3,IT,1684096772
380,tarakan,3.3,117.6333,77.68,92,100,11.5,ID,1684096773
381,juneau,58.3019,-134.4197,57.22,67,75,11.5,US,1684096535
382,tuy hoa,13.0833,109.3,77.27,90,48,5.3,VN,1684096774
383,kosciusko,33.0576,-89.5876,89.22,54,61,2.35,US,1684096774
384,carupano,10.6678,-63.2585,84.22,69,23,16.11,VE,1684096775
385,freetown,8.484,-13.2299,80.31,78,40,10.36,SL,1684096775
386,bontang,0.1333,117.5,76.59,93,100,6.08,ID,1684096776
387,new norfolk,-42.7826,147.0587,53.1,55,7,1.99,AU,1684096776
388,grossenhain,51.2833,13.55,56.37,89,100,6.24,DE,1684096777
389,saint-felix-de-valois,46.1668,-73.4324,63.05,25,0,7.0,CA,1684096777
390,remire-montjoly,4.9167,-52.2667,82.44,83,20,8.05,GF,1684096778
391,qamdo,31.1667,97.2333,35.89,44,100,5.91,CN,1684096778
392,ostrovskoye,57.8057,42.2433,43.95,79,6,1.45,RU,1684096779
393,lichinga,-13.3128,35.2406,62.69,88,0,5.75,MZ,1684096779
394,gillette,44.2911,-105.5022,54.52,85,100,11.5,US,1684096779
395,ormara,25.2088,64.6357,81.59,89,1,6.31,PK,1684096780
396,bikenibeu village,1.3673,173.1241,80.56,89,100,2.3,KI,1684096780
397,buta,2.7858,24.73,75.88,69,67,3.2,CD,1684096780
398,tacuarembo,-31.7333,-55.9833,64.09,63,76,7.02,UY,1684096781
399,hami,42.8,93.45,71.74,18,24,1.97,CN,1684096781
400,camayenne,9.535,-13.6878,84.29,74,40,6.91,GN,1684096782
401,treasure island,27.7692,-82.769,89.65,59,40,12.66,US,1684096782
402,puerto armuelles,8.2833,-82.8667,89.58,68,100,7.56,PA,1684096782
403,rawson,-43.3002,-65.1023,62.94,58,100,7.47,AR,1684096782
404,olonkinbyen,70.9221,-8.7187,35.71,95,100,17.45,SJ,1684096783
405,al jawf,29.5,38.75,79.47,12,100,5.5,SA,1684096783
406,ingeniero jacobacci,-41.3427,-69.5448,59.7,34,100,6.11,AR,1684096783
407,alofi,-19.0595,-169.9187,76.89,88,97,12.66,NU,1684096784
408,lerwick,60.1545,-1.1494,46.4,86,8,10.22,GB,1684096784
409,yemetsk,63.4721,41.7941,47.23,70,8,4.99,RU,1684096785
410,nadi,-17.8,177.4167,78.8,73,75,10.36,FJ,1684096785
411,nalut,30.3333,10.85,79.74,33,58,13.65,LY,1684096786
412,kananga,-5.8958,22.4178,76.32,69,90,2.89,CD,1684096787
413,madimba,-10.4,40.3333,78.12,88,20,11.5,TZ,1684096787
414,kisangani,0.5167,25.2,76.23,72,59,3.36,CD,1684096788
415,el vigia,8.6219,-71.6506,87.98,64,100,1.52,VE,1684096788
416,grand falls-windsor,48.9332,-55.6649,50.5,77,100,3.0,CA,1684096788
417,harstad,68.799,16.5293,50.16,79,50,18.99,NO,1684096789
418,kaitong,44.8135,123.15,60.85,60,100,10.13,CN,1684096789
419,hilo,19.7297,-155.09,83.28,86,100,3.44,US,1684096567
420,geraldton,-28.7667,114.6,54.01,71,0,8.05,AU,1684096790
421,carnarvon,-24.8667,113.6333,65.01,45,0,13.27,AU,1684096791
422,chulakkurgan,43.765,69.1814,63.05,30,100,6.44,KZ,1684096792
423,ulanhot,46.0833,122.0833,55.53,36,100,23.26,CN,1684096792
424,vytegra,61.0064,36.4481,45.77,69,2,3.83,RU,1684096793
425,puerto colombia,10.9878,-74.9547,87.89,76,100,12.41,CO,1684096793
426,denov,38.2667,67.9,72.41,34,0,6.93,UZ,1684096793
427,ketchikan,55.3422,-131.6461,61.27,72,0,11.5,US,1684096794
428,desna,50.9273,30.7605,62.85,63,11,3.27,UA,1684096794
429,dera ismail khan,31.8327,70.9024,87.46,23,6,5.88,PK,1684096795
430,crieff,56.3727,-3.8389,52.07,76,4,5.73,GB,1684096795
431,latimer,30.5346,-88.8667,91.26,51,0,12.66,US,1684096796
432,tocopilla,-22.092,-70.1979,69.35,75,38,2.08,CL,1684096796
433,presque isle,46.6811,-68.0159,59.29,32,20,20.71,US,1684096672
434,quepos,9.4236,-84.1652,87.24,68,97,6.22,CR,1684096798
435,taroa,8.7058,171.2275,82.09,79,100,18.43,MH,1684096798
436,zholymbet,51.7433,71.7122,38.46,80,0,8.61,KZ,1684096799
437,castellammare del golfo,38.0188,12.8858,63.72,93,99,7.07,IT,1684096799
438,necochea,-38.5473,-58.7368,59.38,72,99,8.93,AR,1684096800
439,kenema,7.8767,-11.1875,76.57,93,73,1.72,SL,1684096800
440,ust'-kut,56.7938,105.7672,24.22,69,7,3.53,RU,1684096801
441,saint-louis,16.3333,-15.0,81.95,38,54,19.71,SN,1684096801
442,piti village,13.4626,144.6933,82.45,87,20,5.75,GU,1684096802
443,flekkefjord,58.2971,6.6607,49.95,90,100,1.63,NO,1684096802
444,labrador city,52.9463,-66.9114,44.51,39,40,13.8,CA,1684096803
445,tindouf,27.6711,-8.1474,86.45,13,0,4.61,DZ,1684096803
446,mount isa,-20.7333,139.5,55.17,67,4,0.0,AU,1684096804
447,portland,45.5234,-122.6762,91.15,29,20,25.32,US,1684096511
448,salamanca,40.8333,-6.0,58.78,50,67,6.49,ES,1684096806
449,humaita,-7.5061,-63.0208,84.38,75,97,2.44,BR,1684096807
450,qashyr,53.0675,76.1036,40.55,55,16,8.3,KZ,1684096808
451,akdagmadeni,39.6603,35.8836,43.36,82,78,3.44,TR,1684096808
452,manta,-0.95,-80.7333,83.98,79,75,11.5,EC,1684096683
453,cosamaloapan,18.3667,-95.8,92.35,43,18,13.27,MX,1684096693
454,la ronge,55.1001,-105.2842,80.85,19,75,12.66,CA,1684096810
455,moussoro,13.6408,16.4901,95.2,14,25,7.58,TD,1684096811
456,yeed,4.55,43.0333,85.1,44,82,16.55,SO,1684096811
457,heroica guaymas,27.9333,-110.9,88.88,29,0,11.5,MX,1684096541
458,abu zabad,12.35,29.25,87.71,15,9,6.53,SD,1684096812
459,makawao,20.8569,-156.3131,73.22,72,75,11.5,US,1684096813
460,xiangxiang,27.7333,112.5333,69.24,81,100,2.93,CN,1684096813
461,klaksvik,62.2266,-6.589,45.52,79,1,25.19,FO,1684096814
462,la passe,45.5549,-0.8967,62.83,86,89,11.88,FR,1684096814
463,mburucuya,-28.0454,-58.2245,67.95,60,0,5.84,AR,1684096815
464,post,33.1909,-101.3782,73.06,55,100,9.15,US,1684096815
465,kapa'a,22.0752,-159.319,80.58,74,75,19.57,US,1684096816
466,midelt,32.6852,-4.7451,57.85,31,0,11.32,MA,1684096816
467,socorro,31.6546,-106.3033,82.26,26,75,9.22,US,1684096817
468,nyrob,60.733,56.7202,37.31,66,37,1.48,RU,1684096817
469,shengli,37.4564,118.4856,70.97,40,0,4.12,CN,1684096817
470,schweizer-reneke,-27.1887,25.3293,50.97,45,0,6.11,ZA,1684096818
471,ulladulla,-35.35,150.4667,52.99,85,19,3.71,AU,1684096819
472,urengoy,65.9667,78.3667,24.01,95,100,15.21,RU,1684096819
473,pangody,65.85,74.4859,26.44,92,100,16.35,RU,1684096820
474,primorsk,46.7348,36.3443,56.55,79,95,7.58,UA,1684096820
475,kuta,-8.7233,115.1723,80.55,74,40,10.36,ID,1684096821
476,general pico,-35.6566,-63.7568,76.3,34,78,5.61,AR,1684096821
477,quthing,-30.4,27.7003,50.23,78,33,6.71,LS,1684096822
478,konstantinovsk,47.5828,41.0922,53.19,91,100,7.74,RU,1684096822
479,calangute,15.5439,73.7553,82.87,78,3,7.34,IN,1684096823
480,ko pha ngan,9.7578,100.0291,80.55,71,20,11.36,TH,1684096824
481,queenstown,-31.8976,26.8753,47.86,93,100,6.6,ZA,1684096824
482,bunia,1.5667,30.25,68.09,73,55,4.85,CD,1684096825
483,lompoc,34.6391,-120.4579,81.79,73,20,11.5,US,1684096825
484,lagoa,39.05,-27.9833,62.82,85,100,5.64,PT,1684096826
485,stephenville,32.2207,-98.2023,79.86,75,75,3.44,US,1684096680
486,port saint john's,-31.6229,29.5448,64.96,85,100,15.82,ZA,1684096827
487,sarmiento,-45.5882,-69.07,58.95,62,100,5.26,AR,1684096827
488,tsiombe,-25.3,45.4833,70.09,95,10,6.58,MG,1684096828
489,ugoofaaru,5.6667,73.0,82.74,79,99,15.64,MV,1684096828
490,kailua-kona,19.6406,-155.9956,80.56,74,40,9.22,US,1684096693
491,vadso,70.0744,29.7487,50.88,70,75,5.75,NO,1684096829
492,porto novo,6.4965,2.6036,85.82,84,91,10.92,BJ,1684096635
493,hadibu,12.65,54.0333,85.69,76,27,6.29,YE,1684096830
494,bechem,7.0903,-2.025,73.87,98,100,3.65,GH,1684096831
495,mumford,5.2618,-0.759,82.8,81,50,12.77,GH,1684096832
496,uray,60.1247,64.7758,38.73,70,72,6.15,RU,1684096833
497,espumoso,-28.7247,-52.8497,61.83,70,85,2.44,BR,1684096833
498,sale,34.0389,-6.8166,66.88,72,0,5.75,MA,1684096834
499,asind,25.7333,74.3333,87.15,33,77,19.3,IN,1684096834
500,armacao de buzios,-22.7469,-41.8817,75.25,72,71,7.96,BR,1684096835
501,santana,-0.0583,-51.1817,87.98,79,40,10.36,BR,1684096835
502,swift current,50.2834,-107.8014,72.41,43,20,12.66,CA,1684096816
503,sao raimundo das mangabeiras,-7.0219,-45.4811,78.87,82,99,3.49,BR,1684096836
504,wynyard,-41.0,145.7167,48.97,88,12,2.71,AU,1684096837
505,novyy urengoy,66.0833,76.6333,25.59,95,100,16.44,RU,1684096837
506,bor,56.3567,44.0669,44.53,85,17,4.45,RU,1684096838
507,san antonio de pale,-1.4014,5.6325,82.18,81,63,11.79,GQ,1684096838
508,de aar,-30.6497,24.0123,49.48,78,99,24.49,ZA,1684096839
509,belmonte,-15.8631,-38.8828,76.66,82,54,5.28,BR,1684096839
510,margate,51.3813,1.3862,55.69,86,99,3.0,GB,1684096840
511,ratnagiri,16.9833,73.3,82.04,80,6,4.79,IN,1684096762
512,nadym,65.5333,72.5167,28.96,90,100,17.31,RU,1684096841
513,maputo,-25.9653,32.5892,72.23,91,40,1.99,MZ,1684096841
514,mana,5.6592,-53.7767,81.05,84,95,9.37,GF,1684096842
515,angaur state,6.906,134.13,83.98,67,56,6.22,PW,1684096842
516,kavieng,-2.5744,150.7967,81.81,80,47,4.9,PG,1684096843
517,rio segundo,-31.6526,-63.9099,85.66,45,0,12.17,AR,1684096844
518,seydi,39.4816,62.9137,84.16,20,67,15.14,TM,1684096844
519,progreso,21.2833,-89.6667,98.71,69,44,19.13,MX,1684096844
520,jinjing,24.575,118.5972,72.21,88,100,10.71,CN,1684096845
521,kiruna,67.8557,20.2251,43.72,70,6,3.44,SE,1684096845
522,loiza,18.4313,-65.8802,87.78,67,75,6.91,PR,1684096846
523,weno,7.4515,151.8468,83.34,80,97,12.48,FM,1684096846
524,laojunmiao,39.8333,97.7333,59.2,20,99,6.8,CN,1684096847
525,vuosaari,60.2083,25.1436,56.05,70,0,4.0,FI,1684096847
526,patnanungan,14.7833,122.1833,81.12,79,99,1.88,PH,1684096848
527,dinguiraye,11.3,-10.7167,85.55,41,97,4.21,GN,1684096848
528,yarmouth,41.7057,-70.2286,63.14,50,0,5.75,US,1684096849
529,vorkuta,67.5,64.0,33.33,93,100,16.82,RU,1684096850
530,manokwari,-0.8667,134.0833,79.3,77,64,6.06,ID,1684096850
531,muynoq,43.7683,59.0214,61.97,78,100,19.22,UZ,1684096851
532,phan rang-thap cham,11.5667,108.9833,77.65,87,61,3.29,VN,1684096851
533,bengkulu,-3.8004,102.2655,77.0,91,98,4.16,ID,1684096852
534,waingapu,-9.6567,120.2641,70.52,81,35,6.42,ID,1684096852
535,hammerfest,70.6634,23.6821,46.85,81,75,0.0,NO,1684096853
536,uzes,44.0167,4.4167,63.16,69,48,8.34,FR,1684096853
537,pitea,65.3172,21.4794,46.49,62,15,6.69,SE,1684096854
538,jodhpur,26.2867,73.03,90.5,36,45,15.86,IN,1684096854
539,moshkovo,55.3053,83.6104,36.73,53,97,6.62,RU,1684096854
540,oltu,40.5498,42.0013,41.41,79,100,5.01,TR,1684096855
541,baotou,40.6522,109.8222,64.49,17,0,2.53,CN,1684096755
542,afif,23.9065,42.9172,82.35,16,78,17.13,SA,1684096856
543,isangel,-19.55,169.2667,77.11,83,75,4.61,VU,1684096856
544,oxelosund,58.6706,17.1015,55.78,54,0,9.22,SE,1684096856
545,cuyamel,15.6667,-88.2,86.16,83,88,8.41,HN,1684096857
546,thai binh,20.45,106.3333,71.58,89,100,3.0,VN,1684096857
547,eraan,9.0629,117.7016,78.1,89,77,2.62,PH,1684096858
548,villaguay,-31.8653,-59.0269,69.37,44,11,6.24,AR,1684096858
549,gumdag,39.2061,54.5906,60.01,75,48,15.61,TM,1684096859
550,novyy urgal,51.0736,132.5642,55.06,75,73,8.97,RU,1684096859
551,bardai,11.65,7.2333,89.01,21,42,1.86,NG,1684096860
552,yima,34.7381,111.8839,68.0,36,3,4.18,CN,1684096860
553,nueva helvecia,-34.3,-57.2333,66.11,54,9,8.21,UY,1684096861
554,ixtapa,20.7,-105.2,81.63,69,20,14.97,MX,1684096861
555,san luis de la loma,17.2706,-100.8939,87.78,57,33,7.85,MX,1684096862
556,gunjur,13.2019,-16.7339,75.27,83,0,8.05,GM,1684096862
557,masterton,-40.9597,175.6575,51.89,91,26,2.95,NZ,1684096863
558,black point,-34.6187,137.8972,60.1,60,54,4.29,AU,1684096864
559,sao jose da coroa grande,-8.8978,-35.1478,79.21,77,63,7.99,BR,1684096864
560,hirara,24.8,125.2833,68.27,94,100,2.3,JP,1684096865
561,panaba,21.2833,-88.2667,89.82,47,96,16.84,MX,1684096865
562,itamaraca,-7.7478,-34.8256,84.25,78,23,8.03,BR,1684096866
563,bokhan,53.153,103.7714,31.06,58,100,4.41,RU,1684096867
564,bel ombre,-4.6167,55.4167,82.24,83,40,4.61,SC,1684096867
565,sinjai,-5.1241,120.253,73.56,93,56,3.8,ID,1684096868
566,jinchang,38.4953,102.1739,68.4,26,91,2.1,CN,1684096868
567,howrah,22.5892,88.3103,80.6,69,20,0.0,IN,1684096869
568,kangaba,11.9333,-8.4167,86.65,41,66,4.03,ML,1684096869
569,lospalos,-8.5186,127.0025,69.53,88,100,5.41,TL,1684096870
570,namibe,-15.1961,12.1522,70.81,78,0,3.96,AO,1684096870
571,sirte,31.2089,16.5887,84.42,23,98,21.07,LY,1684096871
572,kem',64.9555,34.5793,50.47,74,81,4.99,RU,1684096872
